,City,Lat,Lng,Max Temp,Humidity,Cloudiness,Wind Speed,Country,Date
0,rikitea,-23.12,-134.97,23.67,82,99,6.1,PF,1603902909
1,mataura,-46.19,168.86,8.89,90,93,0.89,NZ,1603902994
2,busselton,-33.65,115.33,14.44,47,0,5.41,AU,1603902994
3,dikson,73.51,80.55,-15.47,93,28,9.82,RU,1603902994
4,albany,42.6,-73.97,8.33,90,100,0.53,US,1603902853
5,hanzhong,33.07,107.03,10.84,79,90,0.42,CN,1603902994
6,beringovskiy,63.05,179.32,-3.49,96,46,6.36,RU,1603902994
7,mackay,-21.15,149.2,20.0,94,31,3.28,AU,1603902994
8,saskylakh,71.92,114.08,-14.95,91,100,6.05,RU,1603902994
9,flinders,-34.58,150.86,15.56,88,100,0.45,AU,1603902995
10,punta arenas,-53.15,-70.92,10.0,43,40,15.4,CL,1603902890
11,kidal,18.44,1.41,32.85,11,1,4.91,ML,1603902995
12,yaan,7.38,8.57,28.38,59,59,0.92,NG,1603902995
13,new norfolk,-42.78,147.06,10.0,87,90,1.5,AU,1603902918
14,rabat,33.99,-6.84,20.0,60,0,4.6,MA,1603902998
15,vao,-22.67,167.48,21.95,78,60,8.21,NC,1603902998
16,aksu,41.12,80.26,7.47,50,100,0.74,CN,1603902999
17,east london,-33.02,27.91,21.0,83,90,3.6,ZA,1603902999
18,lebu,-37.62,-73.65,12.73,61,0,5.91,CL,1603902999
19,sitka,57.05,-135.33,6.0,87,90,3.6,US,1603902999
20,mahibadhoo,3.78,72.97,28.37,76,77,5.27,MV,1603902999
21,hermanus,-34.42,19.23,18.89,62,90,3.58,ZA,1603902913
22,bontang,0.13,117.5,26.64,82,79,1.53,ID,1603902999
23,pacific grove,36.62,-121.92,13.33,32,1,1.5,US,1603902991
24,raudeberg,61.99,5.14,10.56,65,55,5.71,NO,1603903000
25,namatanai,-3.67,152.43,26.34,82,59,2.01,PG,1603903000
26,yuli,9.7,10.27,29.41,28,19,1.78,NG,1603903000
27,atuona,-9.8,-139.03,25.23,74,25,9.04,PF,1603902906
28,viedma,-40.81,-63.0,19.44,37,14,2.68,AR,1603903000
29,adrar,20.5,-10.07,33.03,14,0,5.34,MR,1603903001
30,khatanga,71.97,102.5,-18.89,90,33,1.72,RU,1603903001
31,bluff,-46.6,168.33,8.89,90,94,0.89,NZ,1603902909
32,shirokiy,49.76,129.52,-2.14,98,81,3.97,RU,1603902976
33,xai-xai,-25.05,33.64,26.17,60,0,6.84,MZ,1603903001
34,talnakh,69.49,88.4,-19.1,75,0,1.87,RU,1603902787
35,alice springs,-23.7,133.88,16.0,21,0,3.41,AU,1603903001
36,shimoda,34.67,138.95,13.89,61,79,0.89,JP,1603902999
37,bilibino,68.05,166.44,-17.63,86,87,0.89,RU,1603903001
38,bredasdorp,-34.53,20.04,21.0,49,97,6.7,ZA,1603903002
39,yellowknife,62.46,-114.35,-6.0,92,90,2.52,CA,1603903003
40,kapaa,22.08,-159.32,21.0,88,20,3.1,US,1603903003
41,tuktoyaktuk,69.45,-133.04,-6.0,85,90,7.2,CA,1603903003
42,saint george,37.1,-113.58,12.22,26,1,2.1,US,1603902964
43,waipawa,-41.41,175.52,13.0,87,99,1.5,NZ,1603903003
44,maceio,-9.67,-35.74,31.0,58,75,7.2,BR,1603902906
45,pontianak,-0.03,109.33,24.82,90,88,1.1,ID,1603903004
46,cherskiy,68.75,161.3,-15.42,94,92,3.13,RU,1603903004
47,suntar,62.14,117.63,-11.11,91,42,1.82,RU,1603903004
48,vaini,-21.2,-175.2,21.0,88,20,4.1,TO,1603902908
49,stephenville,32.22,-98.2,3.33,93,90,4.6,US,1603902953
50,faanui,-16.48,-151.75,26.68,80,88,8.09,PF,1603903004
51,thompson,55.74,-97.86,-11.0,66,75,3.6,CA,1603903004
52,puerto ayora,-0.74,-90.35,22.0,78,75,4.1,EC,1603903005
53,sao filipe,14.9,-24.5,28.5,64,100,1.35,CV,1603902966
54,upernavik,72.79,-56.15,-11.19,80,11,3.12,GL,1603903005
55,zhigansk,66.77,123.37,-22.84,90,46,2.59,RU,1603903005
56,souillac,-20.52,57.52,23.33,73,77,3.13,MU,1603903005
57,kendari,-3.94,122.5,25.11,84,43,1.36,ID,1603903005
58,mar del plata,-38.0,-57.56,17.78,55,0,3.6,AR,1603903005
59,yulara,-25.24,130.99,22.0,14,0,2.1,AU,1603903006
60,sangar,63.92,127.47,-19.59,91,67,2.93,RU,1603903006
61,itoman,26.12,127.67,24.0,73,20,3.6,JP,1603903006
62,faya,18.39,42.45,20.0,14,20,4.1,SA,1603903006
63,olinda,-8.01,-34.86,30.0,62,40,5.1,BR,1603902829
64,bandarbeyla,9.49,50.81,25.53,83,48,4.31,SO,1603903006
65,port lincoln,-34.73,135.87,16.28,67,86,5.33,AU,1603902968
66,cape town,-33.93,18.42,18.89,67,20,8.7,ZA,1603903006
67,jamestown,42.1,-79.24,7.22,100,90,3.6,US,1603903007
68,korla,41.76,86.15,8.53,48,98,2.35,CN,1603903007
69,mount isa,-20.73,139.5,12.0,37,0,0.5,AU,1603902984
70,lata,40.16,-8.33,19.44,73,81,0.89,PT,1603903007
71,salym,60.06,71.48,-12.16,94,0,1.5,RU,1603903007
72,pevek,69.7,170.31,-6.83,96,100,2.77,RU,1603902927
73,belgrade,44.8,20.47,12.0,93,90,3.1,RS,1603902824
74,lebork,54.54,17.75,10.56,76,75,5.7,PL,1603902780
75,kavieng,-2.57,150.8,28.09,73,83,2.32,PG,1603903007
76,kathmandu,27.72,85.32,17.0,77,20,0.44,NP,1603902997
77,ushuaia,-54.8,-68.3,6.0,54,40,12.9,AR,1603902912
78,mumford,5.26,-0.76,26.59,83,33,5.73,GH,1603903008
79,yar-sale,66.83,70.83,-15.51,89,10,4.93,RU,1603903008
80,luderitz,-26.65,15.16,16.34,69,50,9.42,NA,1603902994
81,monchegorsk,67.94,32.87,2.8,93,100,2.51,RU,1603903008
82,vardo,70.37,31.11,3.0,86,75,7.2,NO,1603903008
83,cape canaveral,28.41,-80.6,30.0,66,1,5.7,US,1603903000
84,kieta,-6.22,155.63,26.01,77,100,1.45,PG,1603903008
85,nelson bay,-32.72,152.15,15.56,100,90,2.1,AU,1603902844
86,georgetown,5.41,100.34,27.0,83,20,2.35,MY,1603903009
87,khorramshahr,30.44,48.17,26.0,34,0,2.1,IR,1603903009
88,weihai,37.5,122.11,13.76,40,45,4.11,CN,1603903009
89,pangody,65.85,74.49,-18.07,87,0,2.47,RU,1603902729
90,victoria,22.29,114.16,23.89,82,100,0.45,HK,1603902924
91,hilo,19.73,-155.09,21.67,83,1,1.5,US,1603903009
92,boa vista,2.82,-60.67,34.0,44,75,5.7,BR,1603902824
93,udachnyy,66.42,112.4,-26.04,88,1,1.09,RU,1603903009
94,severo-kurilsk,50.68,156.12,5.17,85,7,1.35,RU,1603902932
95,san patricio,28.02,-97.52,10.0,100,90,8.2,US,1603903011
96,homer,59.64,-151.55,2.22,92,1,2.1,US,1603903011
97,indian head,38.6,-77.16,21.11,73,75,3.29,US,1603902911
98,poum,-20.23,164.02,24.31,79,40,8.25,NC,1603903011
99,mwinilunga,-11.74,24.43,24.32,47,71,1.18,ZM,1603903011
100,chokurdakh,70.63,147.92,-18.48,92,93,3.48,RU,1603902930
101,hobart,-42.88,147.33,10.0,87,90,1.5,AU,1603902824
102,along,28.17,94.77,17.67,67,0,0.98,IN,1603903011
103,port alfred,-33.59,26.89,18.9,87,79,1.85,ZA,1603903011
104,le pradet,43.11,6.02,18.0,68,0,5.7,FR,1603903011
105,repelon,10.49,-75.13,33.0,66,40,2.1,CO,1603903012
106,hirara,24.8,125.28,25.07,78,18,7.66,JP,1603903003
107,ribeira grande,38.52,-28.7,20.0,64,75,4.1,PT,1603903012
108,butaritari,3.07,172.79,26.94,68,54,0.18,KI,1603903012
109,verkhoyansk,67.54,133.38,-17.24,91,100,0.73,RU,1603903012
110,qaanaaq,77.48,-69.36,-11.77,79,96,5.51,GL,1603903012
111,bojnurd,37.47,57.33,13.0,43,0,1.0,IR,1603903012
112,northam,51.03,-4.22,11.67,82,96,8.94,GB,1603903012
113,kununurra,-15.77,128.73,26.0,83,49,2.1,AU,1603902968
114,polunochnoye,60.87,60.42,0.49,95,100,2.66,RU,1603903013
115,nome,64.5,-165.41,-5.0,73,1,3.02,US,1603903013
116,iqaluit,63.75,-68.51,-8.0,61,90,4.1,CA,1603903013
117,avarua,-21.21,-159.78,21.0,88,43,2.1,CK,1603902911
118,basco,20.45,121.97,27.16,83,72,9.35,PH,1603903013
119,norman wells,65.28,-126.83,-10.0,92,90,1.0,CA,1603903013
120,pitimbu,-7.47,-34.81,30.0,58,75,6.2,BR,1603902733
121,otradnoye,59.78,30.82,8.89,87,20,1.0,RU,1603903013
122,codrington,-38.27,141.97,8.07,92,29,2.88,AU,1603903013
123,esperance,-33.87,121.9,11.0,81,0,3.1,AU,1603903013
124,fortuna,40.6,-124.16,10.0,57,1,4.1,US,1603902787
125,kalabo,-14.97,22.68,26.73,45,97,5.29,ZM,1603903014
126,aklavik,68.22,-135.01,-12.0,85,40,1.5,CA,1603902816
127,sunrise manor,36.21,-115.07,16.11,22,1,1.83,US,1603903014
128,grindavik,63.84,-22.43,7.0,52,0,10.3,IS,1603903015
129,jieshi,22.81,115.83,24.44,80,100,0.45,CN,1603902953
130,chuy,-33.7,-53.46,20.79,83,97,3.96,UY,1603903015
131,yandyki,45.77,47.13,10.24,51,38,7.53,RU,1603903015
132,zhurivka,50.5,31.78,9.0,81,0,2.0,UA,1603903015
133,casablanca,33.59,-7.62,21.0,64,0,8.2,MA,1603903017
134,salalah,17.02,54.09,28.0,78,40,4.1,OM,1603903017
135,svetlogorsk,52.63,29.73,9.02,83,0,3.42,BY,1603903017
136,atar,20.52,-13.05,34.13,14,100,6.59,MR,1603903017
137,hasaki,35.73,140.83,15.0,93,75,1.0,JP,1603902957
138,aleppo,36.25,37.5,23.6,20,48,4.53,SY,1603903017
139,kahului,20.89,-156.47,24.0,83,1,1.5,US,1603903017
140,cabo san lucas,22.89,-109.91,24.0,64,75,2.6,MX,1603903017
141,castro,-24.79,-50.01,27.39,31,0,3.99,BR,1603903018
142,nikolskoye,59.7,30.79,8.89,87,20,1.0,RU,1603902922
143,khudumelapye,-23.88,24.75,30.25,21,20,5.0,BW,1603903018
144,provideniya,64.38,-173.3,-4.24,89,44,1.87,RU,1603902967
145,jackson,42.42,-122.83,4.0,60,1,0.19,US,1603902795
146,lensk,60.73,114.93,-9.78,90,41,2.72,RU,1603903018
147,christchurch,-43.53,172.63,11.67,93,100,2.6,NZ,1603903019
148,cidreira,-30.18,-50.21,21.11,76,98,6.18,BR,1603902909
149,kaitangata,-46.28,169.85,10.0,85,95,4.47,NZ,1603902925
150,oistins,13.07,-59.53,27.0,83,75,7.7,BB,1603903020
151,ambon,-3.7,128.18,27.22,94,99,3.4,ID,1603903020
152,lerik,38.77,48.41,17.0,82,75,1.0,AZ,1603903020
153,arlit,18.74,7.39,32.16,11,0,5.6,NE,1603903020
154,nantucket,41.28,-70.1,11.11,87,90,6.7,US,1603903010
155,vytegra,61.01,36.45,7.19,87,41,3.39,RU,1603903020
156,abonnema,4.71,6.79,28.0,83,75,1.5,NG,1603903021
157,bengkulu,-3.8,102.27,24.5,86,100,1.59,ID,1603903022
158,port-gentil,-0.72,8.78,24.0,100,75,1.0,GA,1603903022
159,longyearbyen,78.22,15.64,-1.0,80,75,2.1,SJ,1603903022
160,moranbah,-22.0,148.05,20.74,26,0,2.94,AU,1603903022
161,carnarvon,-24.87,113.63,21.0,88,0,9.3,AU,1603903022
162,bud,39.45,-86.18,9.44,87,90,0.61,US,1603903022
163,torbay,47.67,-52.73,4.44,86,90,4.1,CA,1603902861
164,san,13.3,-4.9,34.55,11,3,4.17,ML,1603903023
165,tiksi,71.69,128.87,-17.68,89,99,10.15,RU,1603903023
166,sambava,-14.27,50.17,24.16,85,4,4.99,MG,1603903023
167,airai,-8.93,125.41,15.74,85,71,1.19,TL,1603902941
168,venado tuerto,-33.75,-61.97,13.33,80,100,3.13,AR,1603903024
169,kargasok,59.06,80.86,-10.11,95,100,7.09,RU,1603903024
170,odweyne,9.41,45.06,22.8,43,5,7.33,SO,1603903024
171,khandbari,27.37,87.2,17.42,52,0,1.39,NP,1603903025
172,bethel,41.37,-73.41,9.0,93,90,2.6,US,1603903025
173,nuuk,64.18,-51.72,-5.0,67,40,2.6,GL,1603903025
174,mandera,3.94,41.87,28.86,56,40,6.03,KE,1603903025
175,tahe,52.33,124.73,-6.47,93,34,1.86,CN,1603903025
176,fort nelson,58.81,-122.7,-5.0,92,75,1.0,CA,1603903025
177,mildura,-34.2,142.15,14.0,54,56,2.6,AU,1603903025
178,parakou,9.34,2.63,28.99,45,14,0.78,BJ,1603903026
179,narsaq,60.92,-46.05,0.0,90,75,1.18,GL,1603903026
180,saint-philippe,-21.36,55.77,24.0,73,0,7.7,RE,1603903026
181,nalut,30.33,10.85,18.87,30,0,4.14,LY,1603902978
182,kodiak,57.79,-152.41,1.0,86,90,2.6,US,1603903027
183,storslett,69.77,21.02,0.0,81,20,4.1,NO,1603903027
184,namibe,-15.2,12.15,21.35,82,67,5.32,AO,1603903027
185,berlevag,70.86,29.09,3.0,86,40,7.2,NO,1603903027
186,deputatskiy,69.3,139.9,-20.51,91,94,0.73,RU,1603903027
187,summerland,49.6,-119.67,4.44,64,75,5.7,CA,1603902977
188,gorontalo,0.54,123.06,24.22,88,48,0.82,ID,1603903028
189,pangnirtung,66.15,-65.71,-7.0,62,90,2.1,CA,1603903028
190,ponta do sol,32.67,-17.1,22.0,60,40,3.1,PT,1603902921
191,hobyo,5.35,48.53,26.9,76,1,3.94,SO,1603902921
192,belaya gora,68.53,146.42,-16.32,93,100,1.28,RU,1603903028
193,okha,53.57,142.95,2.58,91,99,1.13,RU,1603903028
194,djambala,-2.54,14.75,20.78,96,99,2.61,CG,1603903029
195,saint-joseph,-21.37,55.62,24.0,73,0,7.7,RE,1603903029
196,kruisfontein,-34.0,24.73,18.33,82,96,1.34,ZA,1603903029
197,hithadhoo,-0.6,73.08,28.7,72,16,5.05,MV,1603903030
198,bristol,41.83,-71.17,10.0,92,100,1.54,US,1603902837
199,vila velha,-20.33,-40.29,30.0,70,20,8.7,BR,1603902819
200,leningradskiy,69.38,178.42,-7.42,88,100,2.9,RU,1603902911
201,llanelli,51.68,-4.16,10.56,81,100,9.8,GB,1603902801
202,sobolevo,54.43,31.9,6.88,86,1,3.54,RU,1603903030
203,abalak,58.13,68.59,-4.23,99,98,1.3,RU,1603903030
204,lewisporte,49.25,-55.05,2.0,74,40,4.6,CA,1603902965
205,arraial do cabo,-22.97,-42.03,34.0,66,0,4.6,BR,1603903026
206,baherden,38.44,57.43,11.38,41,0,5.12,TM,1603903030
207,nizhniy kuranakh,58.84,125.49,-13.5,94,87,0.53,RU,1603903030
208,nassau,40.75,-73.58,14.0,87,90,2.1,US,1603902957
209,santa isabel,-23.32,-46.22,33.0,27,0,7.7,BR,1603903030
210,aswan,24.09,32.91,31.32,16,0,4.38,EG,1603903031
211,mayna,54.11,47.62,-0.83,93,0,3.64,RU,1603903031
212,grand gaube,-20.01,57.66,23.33,73,90,3.13,MU,1603903031
213,high rock,26.62,-78.28,29.0,79,75,5.1,BS,1603903031
214,wamba,8.93,8.6,26.37,51,16,0.53,NG,1603903031
215,saint-francois,46.42,3.91,14.0,82,75,2.1,FR,1603903031
216,xichang,27.9,102.26,15.67,71,91,1.27,CN,1603902950
217,banes,20.96,-75.72,31.0,70,75,7.2,CU,1603903031
218,nioro,13.35,-15.75,35.31,27,82,2.34,GM,1603902993
219,puerto escondido,15.85,-97.07,29.0,66,40,2.6,MX,1603903032
220,guozhen,34.37,107.36,10.41,73,3,1.06,CN,1603903032
221,cabinda,-5.55,12.2,25.51,84,97,3.89,AO,1603903032
222,coahuayana,18.73,-103.68,26.0,78,20,1.46,MX,1603903032
223,kloulklubed,7.04,134.26,26.0,88,75,4.6,PW,1603903032
224,ipixuna,-1.76,-48.8,31.0,70,40,3.6,BR,1603903032
225,mlowo,-9.0,32.98,20.63,52,55,3.74,TZ,1603903033
226,limbang,4.75,115.0,27.0,88,75,0.5,MY,1603903033
227,port elizabeth,-33.92,25.57,19.0,82,75,4.6,ZA,1603903033
228,broken hill,-31.95,141.43,14.0,58,20,0.52,AU,1603903033
229,bongaree,-27.08,153.16,17.78,97,20,2.05,AU,1603903033
230,albacete,38.83,-2.0,17.0,63,20,4.1,ES,1603903033
231,ketchikan,55.34,-131.65,6.0,100,90,1.5,US,1603902914
232,shenjiamen,29.96,122.3,18.53,77,7,4.61,CN,1603903033
233,dukat,62.55,155.55,-13.35,71,0,0.44,RU,1603903033
234,ilulissat,69.22,-51.1,-8.0,57,75,2.1,GL,1603903034
235,barrow,71.29,-156.79,-4.0,68,75,5.1,US,1603903034
236,umm kaddadah,13.6,26.69,32.73,18,0,6.27,SD,1603903034
237,pinhao,-25.7,-51.66,26.28,27,0,3.38,BR,1603903034
238,talara,-4.58,-81.27,23.0,69,0,8.2,PE,1603903034
239,ancud,-41.87,-73.82,13.89,58,75,3.1,CL,1603903034
240,kpandae,8.47,-0.01,31.32,45,16,1.16,GH,1603903034
241,murnau,48.23,12.29,10.56,90,81,2.58,DE,1603903035
242,klaksvik,62.23,-6.59,8.0,87,89,7.2,FO,1603903035
243,kwinana,-32.25,115.77,15.56,76,0,2.1,AU,1603903035
244,mahebourg,-20.41,57.7,23.33,73,82,3.13,MU,1603903035
245,isiro,2.77,27.62,21.45,96,100,1.17,CD,1603903035
246,turukhansk,65.82,87.98,-11.61,90,100,6.73,RU,1603903035
247,pudozh,61.81,36.53,8.31,82,93,4.97,RU,1603902786
248,telimele,10.92,-13.33,30.41,47,81,0.84,GN,1603903036
249,columbus,39.96,-83.0,11.11,81,90,1.5,US,1603902946
250,bilma,18.69,12.92,26.99,15,0,3.24,NE,1603903036
251,margate,51.38,1.39,11.11,82,100,1.79,GB,1603903036
252,saldanha,-33.01,17.94,18.0,55,89,4.1,ZA,1603903036
253,el alto,-4.27,-81.21,23.0,69,0,8.2,PE,1603903036
254,shubarshi,48.59,57.19,2.42,74,29,1.05,KZ,1603903036
255,budureasa,46.67,22.5,13.0,87,0,1.31,RO,1603903036
256,san vicente,-26.62,-54.13,31.04,19,0,1.94,AR,1603903037
257,port hardy,50.7,-127.42,10.0,93,90,3.1,CA,1603902964
258,alekseyevsk,57.84,108.35,-5.11,96,93,2.13,RU,1603903037
259,lorengau,-2.02,147.27,26.96,78,91,1.87,PG,1603903037
260,boo,59.33,18.28,9.44,100,20,3.6,SE,1603903038
261,panama city,8.99,-79.52,30.0,70,20,1.5,PA,1603902792
262,roebourne,-20.78,117.13,21.34,90,0,2.58,AU,1603903038
263,veraval,20.9,70.37,27.04,65,0,3.26,IN,1603903039
264,amapa,1.0,-52.0,37.02,29,0,2.84,BR,1603903039
265,naze,28.37,129.48,18.0,93,45,1.5,JP,1603903039
266,myitkyina,25.38,97.4,23.19,78,14,0.87,MM,1603903039
267,danbury,41.39,-73.45,9.0,93,90,2.6,US,1603903041
268,jibuti,11.5,42.5,29.0,66,1,2.1,DJ,1603903041
269,tautira,-17.73,-149.15,24.0,94,75,10.3,PF,1603902934
270,rawah,34.48,41.91,20.08,23,69,0.5,IQ,1603903041
271,taltal,-25.4,-70.48,17.67,57,14,3.15,CL,1603902966
272,tuatapere,-46.13,167.68,8.89,90,99,0.89,NZ,1603902943
273,tasiilaq,65.61,-37.64,3.0,27,75,8.7,GL,1603902932
274,guanica,17.97,-66.91,31.67,55,52,1.34,PR,1603903041
275,burns lake,54.23,-125.75,2.21,90,100,0.52,CA,1603903041
276,losal,27.4,74.92,21.17,21,0,2.81,IN,1603903042
277,sosva,59.18,61.86,1.99,85,100,3.83,RU,1603903042
278,borogontsy,62.67,131.17,-15.08,94,100,2.01,RU,1603903042
279,presidencia roque saenz pena,-26.79,-60.44,33.33,32,0,1.34,AR,1603903042
280,nicoya,10.15,-85.45,27.0,88,75,2.6,CR,1603903042
281,sarangani,5.4,125.46,27.57,68,100,2.93,PH,1603903042
282,prince rupert,54.32,-130.32,3.0,100,40,1.0,CA,1603903042
283,fort-shevchenko,44.51,50.26,10.61,43,0,9.92,KZ,1603903043
284,cap malheureux,-19.98,57.61,23.33,73,87,3.13,MU,1603903043
285,malanje,-9.54,16.34,21.05,90,100,2.02,AO,1603903043
286,charters towers,-20.1,146.27,22.33,51,0,2.61,AU,1603903043
287,geraldton,-28.77,114.6,17.0,72,0,5.7,AU,1603903043
288,marsa matruh,31.35,27.25,26.0,54,0,3.6,EG,1603903043
289,demmin,53.91,13.03,12.0,76,40,3.1,DE,1603903043
290,isangel,-19.55,169.27,22.41,77,24,5.69,VU,1603903044
291,honavar,14.28,74.45,25.22,66,9,1.89,IN,1603903044
292,inta,66.03,60.17,0.81,94,100,4.58,RU,1603903044
293,lavrentiya,65.58,-171.0,-3.92,88,13,2.59,RU,1603902923
294,sabha,27.04,14.43,23.08,30,0,3.53,LY,1603902892
295,sorland,67.67,12.69,7.0,81,75,0.5,NO,1603903044
296,dalbandin,28.89,64.41,14.18,30,0,1.01,PK,1603903044
297,gijon,43.54,-5.66,18.89,79,60,1.34,ES,1603902753
298,shache,38.42,77.24,6.36,52,100,1.73,CN,1603903045
299,caravelas,-17.71,-39.25,27.15,77,88,7.22,BR,1603903045
300,hinton,53.4,-117.59,1.96,85,99,1.25,CA,1603902984
301,akureyri,65.68,-18.09,5.0,75,75,7.2,IS,1603903045
302,kharan,28.58,65.42,18.49,22,0,5.14,PK,1603903045
303,roma,43.21,-75.46,8.33,93,90,2.65,US,1603903045
304,guerrero negro,27.98,-114.06,19.73,25,0,0.3,MX,1603903045
305,bida,9.08,6.02,29.89,40,11,0.97,NG,1603903046
306,lakshmipur,22.95,90.83,25.58,78,0,3.01,BD,1603903046
307,omboue,-1.57,9.26,24.27,93,100,2.81,GA,1603903046
308,nikel,69.41,30.22,-1.0,92,20,7.7,RU,1603903046
309,komotini,41.12,25.4,18.33,72,98,0.45,GR,1603903046
310,avera,33.19,-82.53,26.0,88,90,3.6,US,1603903046
311,colquechaca,-18.67,-66.02,10.48,34,5,8.46,BO,1603903047
312,nadvoitsy,63.87,34.32,7.96,80,81,4.83,RU,1603903047
313,natal,-5.79,-35.21,30.0,66,75,7.7,BR,1603902800
314,debre tabor,11.85,38.02,11.81,65,11,1.31,ET,1603903047
315,buraydah,26.33,43.98,26.0,22,0,2.6,SA,1603903047
316,birpur,26.52,87.02,22.95,68,0,1.94,IN,1603903047
317,skjervoy,70.03,20.97,0.0,66,20,4.1,NO,1603903047
318,milkovo,54.72,158.62,-0.59,98,74,1.21,RU,1603903048
319,dingle,11.0,122.67,24.8,86,82,1.45,PH,1603903048
320,san jose,37.34,-121.89,18.89,32,75,0.17,US,1603902841
321,kaeo,-35.1,173.78,16.11,94,72,1.41,NZ,1603903048
322,dunedin,-45.87,170.5,10.0,82,98,3.3,NZ,1603903048
323,santa cruz,-17.8,-63.17,32.0,52,40,12.9,BO,1603903048
324,cayenne,4.93,-52.33,31.0,62,75,7.2,GF,1603903048
325,gouyave,12.16,-61.73,30.0,74,40,8.7,GD,1603903049
326,doka,13.52,35.77,29.9,24,0,2.56,SD,1603903049
327,bambous virieux,-20.34,57.76,23.33,73,85,3.13,MU,1603903050
328,north ogden,41.31,-111.96,5.56,38,1,1.45,US,1603903050
329,la ronge,55.1,-105.28,-6.0,85,90,2.6,CA,1603903050
330,iskateley,67.68,53.15,2.27,98,100,5.59,RU,1603903050
331,tilichiki,60.47,166.1,-6.17,90,0,3.2,RU,1603902958
332,lagoa,39.05,-27.98,17.77,70,9,4.45,PT,1603903051
333,biu,10.61,12.19,27.1,30,4,2.03,NG,1603903051
334,fare,-16.7,-151.02,26.95,79,48,8.34,PF,1603903051
335,kysyl-syr,63.9,122.76,-18.33,92,2,1.46,RU,1603903051
336,brainerd,46.36,-94.2,2.0,74,75,4.1,US,1603903051
337,vaitape,-16.52,-151.75,27.15,78,87,8.16,PF,1603903051
338,san francisco,37.77,-122.42,16.67,59,1,1.5,US,1603902954
339,kutum,14.2,24.67,28.64,18,68,7.09,SD,1603903052
340,ormara,25.21,64.64,26.0,64,0,3.9,PK,1603903052
341,gigmoto,13.78,124.39,26.81,82,41,1.94,PH,1603903052
342,shingu,33.73,135.98,14.12,82,42,2.91,JP,1603903052
343,vanimo,-2.67,141.3,25.79,82,100,2.08,PG,1603902930
344,vila do maio,15.13,-23.22,32.0,55,0,6.7,CV,1603903052
345,broome,42.25,-75.83,9.44,93,90,2.6,US,1603903052
346,ostrovnoy,68.05,39.51,3.69,89,100,5.09,RU,1603902907
347,ryotsu,38.08,138.43,14.75,76,38,7.47,JP,1603902832
348,buala,-8.14,159.59,26.83,79,84,0.73,SB,1603903054
349,harper,4.38,-7.72,27.01,79,70,3.42,LR,1603903054
350,acapulco,16.86,-99.89,29.0,79,75,1.0,MX,1603903054
351,hals,57.0,10.31,8.33,86,15,1.34,DK,1603903054
352,piney green,34.72,-77.32,25.56,61,40,2.6,US,1603903054
353,meulaboh,4.14,96.13,25.25,84,100,1.35,ID,1603902969
354,walla walla,46.06,-118.34,13.33,65,1,0.72,US,1603902995
355,otavi,-19.65,17.33,26.64,28,66,1.71,NA,1603903054
356,penzance,50.12,-5.54,11.0,81,75,9.3,GB,1603903054
357,sola,-13.88,167.55,26.54,80,3,8.08,VU,1603903054
358,mamallapuram,12.63,80.17,26.39,82,17,5.95,IN,1603903054
359,ucluelet,48.93,-125.55,12.22,100,90,3.1,CA,1603902929
360,ola,59.58,151.28,-1.29,86,0,2.18,RU,1603902786
361,san martin,-33.08,-68.47,19.0,22,20,2.6,AR,1603903056
362,bac lieu,9.29,105.72,25.79,84,100,4.81,VN,1603903056
363,sindor,62.86,51.89,3.2,95,100,4.98,RU,1603903056
364,ballitoville,-29.54,31.21,25.0,78,0,2.6,ZA,1603903056
365,chontalpa,17.7,-93.52,28.48,77,19,1.91,MX,1603903056
366,rio branco,-9.97,-67.81,30.0,66,75,5.7,BR,1603902861
367,dakar,14.69,-17.44,33.0,46,1,1.0,SN,1603902994
368,celestun,20.87,-90.4,28.66,70,14,3.81,MX,1603902909
369,jumla,29.27,82.18,7.99,63,6,1.76,NP,1603903057
370,murray bridge,-35.12,139.27,12.22,82,94,0.45,AU,1603903057
371,padang,-0.95,100.35,25.6,71,84,1.79,ID,1603903057
372,barguzin,53.62,109.62,-1.77,91,79,3.57,RU,1603903058
373,osoyoos,49.03,-119.45,1.67,80,89,1.4,CA,1603903058
374,izmalkovo,52.69,37.96,5.08,70,0,3.32,RU,1603903058
375,irati,-25.47,-50.65,29.63,19,0,2.69,BR,1603903058
376,port hedland,-20.32,118.57,22.0,88,40,3.6,AU,1603903058
377,terrak,65.09,12.37,8.0,75,0,5.1,NO,1603903058
378,nemuro,43.32,145.57,11.38,73,77,8.57,JP,1603903059
379,visnes,59.36,5.22,11.11,81,75,12.3,NO,1603903060
380,svay rieng,11.09,105.8,24.75,83,99,2.98,KH,1603903060
381,nipawin,53.37,-104.0,-3.0,92,90,3.1,CA,1603903060
382,mincivan,39.03,46.72,14.29,70,35,0.66,AZ,1603903060
383,catia la mar,10.6,-67.03,28.89,65,11,4.6,VE,1603903060
384,saint-augustin,51.23,-58.65,0.71,74,0,3.57,CA,1603903060
385,belyy yar,53.6,91.39,2.0,64,0,6.0,RU,1603903061
386,baykit,61.67,96.37,-4.67,94,100,5.86,RU,1603903061
387,bukachacha,52.98,116.92,-5.72,91,0,0.33,RU,1603903061
388,saint anthony,45.02,-93.22,2.22,64,90,3.6,US,1603903061
389,shakawe,-18.37,21.85,30.8,18,67,1.05,BW,1603903062
390,namikupa,-10.83,39.6,23.79,75,59,2.47,TZ,1603903062
391,san quintin,30.48,-115.95,21.0,22,0,1.61,MX,1603903062
392,kollam,8.88,76.6,26.18,85,98,0.46,IN,1603903062
393,santiago del estero,-27.8,-64.26,34.31,23,0,8.13,AR,1603903020
394,tura,25.52,90.22,21.7,92,0,1.67,IN,1603903062
395,howard springs,-12.5,131.05,24.0,88,9,3.1,AU,1603903062
396,cabedelo,-6.98,-34.83,30.0,58,75,6.2,BR,1603902926
397,the valley,18.22,-63.06,29.0,78,75,8.7,AI,1603903062
398,puerto leguizamo,-0.19,-74.78,32.79,52,100,1.95,CO,1603903062
399,bonavista,48.65,-53.11,3.33,86,83,4.47,CA,1603903062
400,dali,25.7,100.18,14.48,82,51,0.69,CN,1603903063
401,baguanos,20.75,-76.03,31.0,70,75,7.2,CU,1603903063
402,maues,-3.38,-57.72,36.59,44,71,0.52,BR,1603903063
403,mahajanga,-15.72,46.32,28.0,69,40,3.1,MG,1603903063
404,boyolangu,-8.12,111.89,24.69,86,70,0.69,ID,1603903063
405,tessalit,20.2,1.01,32.46,11,0,4.05,ML,1603903063
406,eyl,7.98,49.82,26.61,68,3,3.55,SO,1603903064
407,golden,39.76,-105.22,9.44,52,20,3.6,US,1603903064
408,kinsale,51.71,-8.53,8.33,70,40,9.3,IE,1603903064
409,lucapa,-8.42,20.74,22.48,87,65,1.25,AO,1603903064
410,odesa,46.48,30.73,15.0,82,90,1.39,UA,1603903064
411,bubaque,11.28,-15.83,29.05,70,12,3.99,GW,1603903064
412,constitucion,-35.33,-72.42,15.65,59,1,7.67,CL,1603902935
413,codajas,-3.84,-62.06,36.82,42,49,1.3,BR,1603903064
414,kizukuri,40.81,140.39,10.0,98,97,0.89,JP,1603903065
415,sinop,41.77,34.87,18.0,93,40,2.6,TR,1603903065
416,tirumakudal narsipur,12.21,76.91,20.87,79,14,2.02,IN,1603903065
417,khandyga,62.67,135.6,-10.74,96,100,0.62,RU,1603903065
418,przhevalskoye,55.51,31.85,7.58,90,0,3.06,RU,1603903065
419,katsuura,35.13,140.3,18.89,77,75,4.1,JP,1603903065
420,slave lake,55.28,-114.77,0.0,83,75,2.6,CA,1603903065
421,bara,10.37,10.73,34.0,21,0,3.6,NG,1603903065
422,ahuimanu,21.44,-157.84,24.0,83,40,2.04,US,1603902995
423,rasra,25.85,83.85,22.02,37,0,0.93,IN,1603903066
424,clyde river,70.47,-68.59,-9.0,72,75,8.7,CA,1603903066
425,coquimbo,-29.95,-71.34,17.0,63,0,7.7,CL,1603902796
426,tallahassee,30.44,-84.28,29.44,74,75,4.1,US,1603903066
427,verkhnevilyuysk,63.45,120.32,-16.83,93,14,1.12,RU,1603903066
428,valenca do piaui,-6.41,-41.75,38.3,25,64,1.1,BR,1603903066
429,bastia,42.67,9.33,17.22,59,20,1.0,FR,1603903066
430,pella,59.78,30.82,8.89,87,20,1.0,RU,1603903066
431,general pico,-35.66,-63.76,21.52,27,59,7.21,AR,1603903066
432,port blair,11.67,92.75,26.97,77,99,1.25,IN,1603903066
433,bathsheba,13.22,-59.52,27.0,83,75,7.7,BB,1603903067
434,antofagasta,-23.65,-70.4,20.56,63,20,5.7,CL,1603902963
435,waverly,42.74,-84.62,7.78,56,1,6.7,US,1603903067
436,beauchamps,50.01,1.52,12.78,78,100,9.1,FR,1603903067
437,xinyu,27.8,114.93,17.23,80,95,2.37,CN,1603903067
438,alofi,-19.06,-169.92,22.0,83,42,5.7,NU,1603903067
439,half moon bay,37.46,-122.43,16.11,62,5,1.01,US,1603903067
440,hillsborough,37.57,-122.38,16.67,59,1,1.5,US,1603902847
441,ust-kuyga,70.02,135.6,-21.32,90,83,2.16,RU,1603903068
442,burnie,-41.07,145.92,10.56,82,86,1.79,AU,1603903068
443,tazovskiy,67.47,78.7,-18.64,87,0,3.14,RU,1603903068
444,portland,45.52,-122.68,5.56,100,90,2.6,US,1603902820
445,touros,-5.2,-35.46,30.0,58,75,7.7,BR,1603903068
446,guanhaes,-18.77,-42.93,28.82,64,39,1.27,BR,1603902894
447,alenquer,-1.94,-54.74,33.0,63,20,7.2,BR,1603903068
448,hofn,64.25,-15.21,6.0,81,90,5.7,IS,1603903068
449,koutsouras,35.03,25.95,21.11,70,5,4.92,GR,1603903069
450,kijabe,-0.93,36.58,15.56,84,87,4.02,KE,1603903069
451,ballina,-28.87,153.57,18.0,93,49,2.6,AU,1603903069
452,challapata,-18.9,-66.77,13.16,26,32,5.02,BO,1603903069
453,erenhot,43.65,111.98,5.19,49,100,3.13,CN,1603902911
454,durres,41.32,19.44,16.0,72,0,2.6,AL,1603903014
455,pavilosta,56.89,21.19,11.0,76,100,4.1,LV,1603903069
456,chumikan,54.72,135.31,1.96,94,100,4.78,RU,1603903069
457,tual,-5.67,132.75,27.84,77,100,3.92,ID,1603902949
458,mokhsogollokh,61.47,128.92,-13.64,94,97,1.76,RU,1603903070
459,jabinyanah,35.03,10.91,23.0,40,20,4.1,TN,1603903071
460,mizan teferi,6.98,35.58,17.46,90,7,1.0,ET,1603903071
461,copiapo,-27.37,-70.33,17.0,63,40,3.6,CL,1603903071
462,nisia floresta,-6.09,-35.21,30.0,66,75,7.7,BR,1603903072
463,bartica,6.4,-58.62,32.0,59,75,3.1,GY,1603903072
464,morant bay,17.88,-76.41,32.22,66,20,1.5,JM,1603903073
465,toledo,39.83,-4.0,16.11,69,65,4.1,ES,1603902788
466,saint-pierre,-21.34,55.48,24.0,73,0,7.7,RE,1603903073
467,minudasht,37.23,55.37,18.0,63,0,1.2,IR,1603903073
468,uddevalla,58.35,11.94,11.11,81,0,5.7,SE,1603903073
469,inhambane,-23.86,35.38,27.0,69,20,3.1,MZ,1603903073
470,tatarka,44.96,41.95,11.0,81,0,5.0,RU,1603903073
471,neiafu,-18.65,-173.98,23.0,73,40,4.6,TO,1603903074
472,manado,1.49,124.85,25.67,80,99,1.38,ID,1603903074
473,verkhnyaya inta,65.98,60.31,0.21,97,100,4.51,RU,1603903074
474,burkburnett,34.1,-98.57,2.22,100,90,5.7,US,1603902998
475,sertanopolis,-23.06,-51.04,34.0,20,0,3.1,BR,1603903074
476,inzhavino,52.32,42.49,3.3,71,0,4.15,RU,1603903074
477,black diamond,47.31,-122.0,10.0,87,46,0.45,US,1603903074
478,podporozhye,60.91,34.17,8.34,81,76,3.65,RU,1603903075
479,lima,-12.04,-77.03,19.0,72,75,4.1,PE,1603903075
480,rochester,43.15,-77.62,8.33,93,90,5.7,US,1603902811
481,tekirdag,40.98,27.51,16.0,93,20,5.1,TR,1603903075
482,lieksa,63.32,30.02,8.74,78,97,6.1,FI,1603903076
483,sayyan,15.17,44.32,12.02,35,8,2.65,YE,1603903076
484,ambositra,-20.52,47.25,16.08,89,23,3.45,MG,1603903076
485,urengoy,65.97,78.37,-19.23,89,0,3.81,RU,1603903077
486,ornskoldsvik,63.29,18.72,7.0,93,64,5.7,SE,1603903077
487,itupiranga,-5.13,-49.33,34.0,49,75,3.6,BR,1603903077
488,rundu,-17.93,19.77,29.73,23,65,1.93,NA,1603903077
489,porto novo,6.5,2.6,29.0,79,20,5.1,BJ,1603903077
490,lompoc,34.64,-120.46,14.0,40,1,3.6,US,1603903078
491,ambatolampy,-19.38,47.42,20.0,64,20,5.7,MG,1603903078
492,elizabeth city,36.29,-76.25,23.0,78,20,3.6,US,1603902781
493,plettenberg bay,-34.05,23.37,17.07,79,85,1.82,ZA,1603903078
494,samarinda,-0.5,117.15,23.7,94,26,0.44,ID,1603903078
495,les cayes,18.2,-73.75,29.63,68,19,2.81,HT,1603903078
496,zabol,32.25,67.25,8.21,42,0,3.8,AF,1603903079
497,shahreza,32.03,51.88,8.46,46,0,2.09,IR,1603903080
498,sarkand,45.41,79.92,1.46,70,29,1.38,KZ,1603903080
499,belmonte,-15.86,-38.88,28.0,74,40,8.7,BR,1603903080
500,siyabuswa,-25.11,29.04,29.79,25,24,5.83,ZA,1603903080
501,vondrozo,-22.82,47.28,17.21,100,49,1.81,MG,1603902788
502,kenai,60.55,-151.26,-4.0,85,90,4.1,US,1603903080
503,nabisar,25.07,69.64,27.45,27,0,4.05,PK,1603903080
504,yinchuan,38.47,106.27,8.57,43,0,1.95,CN,1603903080
505,wolgast,54.05,13.77,11.0,87,0,3.1,DE,1603903081
506,goundam,16.41,-3.67,36.03,9,5,5.26,ML,1603903081
507,sembe,1.65,14.58,23.38,89,89,1.04,CG,1603903081
508,quime,-16.98,-67.22,22.24,19,6,2.14,BO,1603903081
509,soller,39.77,2.72,20.56,64,0,5.1,ES,1603903081
510,acajutla,13.59,-89.83,29.0,66,20,2.1,SV,1603903082
511,yichang,30.71,111.28,13.89,69,53,1.31,CN,1603903082
512,terra santa,-2.1,-56.49,37.51,36,19,2.79,BR,1603903082
513,boffa,10.17,-14.03,30.12,66,68,3.08,GN,1603903082
514,erdenet,49.03,104.08,-0.95,85,0,1.8,MN,1603903082
515,sampit,-2.53,112.95,24.35,93,100,0.81,ID,1603903082
516,coihaique,-45.58,-72.07,10.0,46,75,3.1,CL,1603903082
517,egvekinot,66.32,-179.17,-8.66,93,72,0.39,RU,1603903082
518,agadez,19.75,10.25,23.96,18,0,2.09,NE,1603903082
519,sur,22.57,59.53,23.07,61,0,1.74,OM,1603903083
520,kenora,49.82,-94.43,-2.0,86,90,3.6,CA,1603903083
521,muchkapskiy,51.85,42.47,3.57,69,0,4.15,RU,1603903083
522,merauke,-8.47,140.33,25.68,74,100,1.29,ID,1603903083
523,lufilufi,-13.87,-171.6,24.0,94,75,2.6,WS,1603903083
524,baoning,25.34,110.03,21.0,64,40,4.0,CN,1603903084
525,karratha,-20.74,116.85,21.34,90,1,2.16,AU,1603903084
526,tefe,-3.35,-64.71,31.0,74,40,2.1,BR,1603903085
527,hervey bay,-25.3,152.85,23.33,83,14,1.79,AU,1603903085
528,krasnoselkup,65.7,82.47,-17.96,90,0,6.29,RU,1603903085
529,olga,43.74,135.29,1.57,83,0,3.75,RU,1603903086
530,malindi,-3.22,40.12,25.89,84,67,5.25,KE,1603903086
531,bewar,27.22,79.3,22.65,22,0,1.75,IN,1603903086
532,gobabis,-22.45,18.97,24.73,33,96,7.5,NA,1603903086
533,galle,6.04,80.22,26.57,84,100,3.19,LK,1603902992
534,acaponeta,22.5,-105.36,31.45,53,0,1.3,MX,1603903086
535,roald,62.58,6.13,8.89,81,40,1.5,NO,1603903086
536,lakselv,70.05,24.97,-4.0,85,0,1.5,NO,1603903087
537,poso,-1.4,120.75,28.33,70,98,1.74,ID,1603903087
538,itarema,-2.92,-39.92,30.4,57,2,8.21,BR,1603903087
539,bella union,-30.28,-57.6,25.57,47,2,3.66,UY,1603903087
540,tekkali,18.62,84.23,23.81,59,1,2.19,IN,1603903087
541,pimentel,-6.84,-79.93,22.0,64,20,6.2,PE,1603903087
542,tigre,-34.43,-58.58,20.0,49,0,8.2,AR,1603903088
543,saint cloud,45.56,-94.16,2.78,74,90,3.1,US,1603902849
544,baoding,38.85,115.49,10.41,39,86,0.43,CN,1603902980
545,lamar,33.67,-95.58,8.0,93,90,5.1,US,1603902933
546,labuan,5.28,115.24,27.0,88,20,3.76,MY,1603902919
547,san cristobal,7.77,-72.22,29.0,74,40,3.6,VE,1603903088
548,mezen,65.85,44.24,5.87,94,100,4.29,RU,1603902982
549,santa marta,11.24,-74.2,32.78,67,2,0.45,CO,1603903060
550,hattiesburg,31.33,-89.29,26.0,83,75,4.6,US,1603903088
551,verkhoshizhemye,58.01,49.1,0.71,90,66,5.43,RU,1603903089
552,tucuma,-0.18,-50.05,31.61,60,20,4.14,BR,1603903089
553,komsomolskiy,40.43,71.72,5.0,44,99,2.1,UZ,1603903089
554,mangotsfield,51.49,-2.5,9.44,87,100,5.7,GB,1603903089
555,male,4.17,73.51,28.05,76,89,5.88,MV,1603903089
556,butia,-30.12,-51.96,22.73,69,92,3.27,BR,1603902809
557,praia da vitoria,38.73,-27.07,22.0,53,20,6.52,PT,1603903089
558,tongchuan,35.08,109.09,8.42,79,4,0.22,CN,1603903089
559,viru,-8.42,-78.75,18.0,77,75,6.2,PE,1603903089
560,mailsi,29.8,72.18,23.52,19,0,2.69,PK,1603903090
561,haines junction,60.75,-137.51,-2.79,95,98,0.64,CA,1603903090
562,biak,-0.91,122.88,25.17,81,54,1.26,ID,1603903090
563,athens,37.98,23.72,17.22,93,75,3.1,GR,1603903043
564,nea alikarnassos,35.33,25.17,21.0,60,40,7.2,GR,1603903090
565,asfi,32.3,-9.24,21.18,57,0,9.71,MA,1603903090
566,kamaishi,39.27,141.88,13.51,79,70,5.47,JP,1603903090
567,soure,-0.72,-48.52,30.84,61,0,6.28,BR,1603903090
