,City,Lat,Lng,Max Temp,Humidity,Cloudiness,Wind Speed,Country,Date
0,rikitea,-23.12,-134.97,74.79,75,75,11.77,PF,1604001390
1,mataura,-46.19,168.86,55.0,90,100,1.99,NZ,1604001295
2,busselton,-33.65,115.33,57.99,45,0,12.75,AU,1604001393
3,dikson,73.51,80.55,5.9,92,100,23.17,RU,1604001406
4,albany,42.6,-73.97,46.0,90,100,2.75,US,1604001391
5,hanzhong,33.07,107.03,56.53,74,76,2.17,CN,1604001795
6,beringovskiy,63.05,179.32,23.92,86,0,7.67,RU,1604001525
7,mackay,-21.15,149.2,66.2,93,75,4.7,AU,1604001796
8,saskylakh,71.92,114.08,-0.08,84,0,4.61,RU,1604001399
9,flinders,-34.58,150.86,55.99,92,25,1.01,AU,1604001495
10,punta arenas,-53.15,-70.92,53.6,50,40,36.91,CL,1604001500
11,kidal,18.44,1.41,83.05,14,0,12.33,ML,1604001796
12,yaan,7.38,8.57,78.73,79,51,6.42,NG,1604001796
13,new norfolk,-42.78,147.06,48.99,71,11,1.81,AU,1604001752
14,rabat,33.99,-6.84,64.99,87,20,4.47,MA,1604001796
15,vao,-22.67,167.48,73.36,83,63,19.17,NC,1604001425
16,aksu,41.12,80.26,42.93,59,75,1.43,CN,1604001548
17,east london,-33.02,27.91,63.16,87,100,19.08,ZA,1604001796
18,lebu,-37.62,-73.65,55.76,67,0,21.65,CL,1604001283
19,sitka,57.05,-135.33,42.8,87,90,4.7,US,1604001413
20,mahibadhoo,3.78,72.97,82.31,76,70,11.05,MV,1604001797
21,hermanus,-34.42,19.23,48.0,86,0,10.02,ZA,1604001451
22,bontang,0.13,117.5,77.85,79,99,1.95,ID,1604001371
23,pacific grove,36.62,-121.92,75.0,45,1,8.05,US,1604001797
24,raudeberg,61.99,5.14,46.0,88,38,10.07,NO,1604001543
25,namatanai,-3.67,152.43,78.22,86,98,8.25,PG,1604001541
26,yuli,9.7,10.27,81.0,33,25,3.15,NG,1604001797
27,atuona,-9.8,-139.03,77.99,71,92,18.59,PF,1604001403
28,viedma,-40.81,-63.0,73.0,20,0,1.99,AR,1604001797
29,adrar,20.5,-10.07,86.13,13,29,7.96,MR,1604001533
30,khatanga,71.97,102.5,3.65,86,0,14.43,RU,1604001314
31,bluff,-46.6,168.33,55.0,90,100,1.99,NZ,1604001418
32,shirokiy,49.76,129.52,28.27,95,47,3.33,RU,1604001798
33,xai-xai,-25.05,33.64,72.68,81,0,10.22,MZ,1604001798
34,talnakh,69.49,88.4,5.34,85,73,7.25,RU,1604001400
35,alice springs,-23.7,133.88,68.0,32,12,16.11,AU,1604001798
36,shimoda,34.67,138.95,52.0,76,87,1.99,JP,1604001798
37,bilibino,68.05,166.44,0.19,83,45,1.68,RU,1604001453
38,bredasdorp,-34.53,20.04,53.6,54,7,8.05,ZA,1604001433
39,yellowknife,62.46,-114.35,21.0,91,2,6.69,CA,1604001393
40,kapaa,22.08,-159.32,77.0,64,1,3.36,US,1604001283
41,tuktoyaktuk,69.45,-133.04,6.03,93,46,5.66,CA,1604001445
42,saint george,37.1,-113.58,72.0,17,1,0.89,US,1604001607
43,waipawa,-41.41,175.52,62.01,87,95,17.22,NZ,1604001799
44,maceio,-9.67,-35.74,84.2,58,0,8.05,BR,1604001353
45,pontianak,-0.03,109.33,76.84,91,90,2.89,ID,1604001799
46,cherskiy,68.75,161.3,5.86,92,95,4.72,RU,1604001343
47,suntar,62.14,117.63,10.81,88,100,6.96,RU,1604001799
48,vaini,-21.2,-175.2,73.4,73,40,10.29,TO,1604001409
49,stephenville,32.22,-98.2,53.01,66,90,13.87,US,1604001799
50,faanui,-16.48,-151.75,80.33,75,0,7.81,PF,1604001395
51,thompson,55.74,-97.86,26.44,96,100,11.25,CA,1604001449
52,puerto ayora,-0.74,-90.35,78.8,69,40,10.36,EC,1604001783
53,sao filipe,14.9,-24.5,81.1,70,0,7.85,CV,1604001800
54,upernavik,72.79,-56.15,22.28,85,100,3.49,GL,1604001409
55,zhigansk,66.77,123.37,-7.53,91,99,4.43,RU,1604001800
56,souillac,-20.52,57.52,68.0,72,0,5.01,MU,1604001333
57,kendari,-3.94,122.5,75.54,85,93,1.92,ID,1604001800
58,mar del plata,-38.0,-57.56,55.4,54,20,11.41,AR,1604001521
59,yulara,-25.24,130.99,64.4,31,0,11.41,AU,1604001616
60,sangar,63.92,127.47,-12.75,89,17,1.43,RU,1604001800
61,itoman,26.12,127.67,75.2,73,75,8.05,JP,1604001588
62,faya,18.39,42.45,64.4,25,0,5.82,SA,1604001420
63,olinda,-8.01,-34.86,82.4,65,0,8.05,BR,1604001493
64,bandarbeyla,9.49,50.81,78.75,82,33,12.15,SO,1604001330
65,port lincoln,-34.73,135.87,55.83,80,56,22.86,AU,1604001769
66,cape town,-33.93,18.42,55.4,54,0,5.82,ZA,1604001801
67,jamestown,42.1,-79.24,46.0,100,90,5.82,US,1604001389
68,korla,41.76,86.15,46.99,76,100,4.0,CN,1604001642
69,mount isa,-20.73,139.5,53.6,18,0,6.46,AU,1604001801
70,lata,40.16,-8.33,61.0,73,0,2.42,PT,1604001801
71,salym,60.06,71.48,37.2,97,100,11.05,RU,1604001801
72,pevek,69.7,170.31,18.75,93,100,7.96,RU,1604001415
73,belgrade,44.8,20.47,53.6,100,40,2.24,RS,1604001590
74,lebork,54.54,17.75,48.99,87,20,10.29,PL,1604001802
75,kavieng,-2.57,150.8,81.25,75,100,4.45,PG,1604001282
76,kathmandu,27.72,85.32,57.2,93,20,3.36,NP,1604001601
77,ushuaia,-54.8,-68.3,46.4,75,75,32.21,AR,1604001282
78,mumford,5.26,-0.76,78.42,86,29,7.4,GH,1604001802
79,yar-sale,66.83,70.83,13.6,96,89,8.84,RU,1604001802
80,luderitz,-26.65,15.16,60.46,71,30,28.3,NA,1604001428
81,monchegorsk,67.94,32.87,36.59,94,100,4.12,RU,1604001802
82,vardo,70.37,31.11,32.0,81,90,9.17,NO,1604001486
83,cape canaveral,28.41,-80.6,91.4,55,20,16.11,US,1604001802
84,kieta,-6.22,155.63,80.46,77,100,2.35,PG,1604001616
85,nelson bay,-32.72,152.15,54.0,100,2,2.24,AU,1604001802
86,georgetown,5.41,100.34,78.8,94,20,4.43,MY,1604001514
87,khorramshahr,30.44,48.17,69.8,49,0,2.24,IR,1604001803
88,weihai,37.5,122.11,57.15,53,0,8.7,CN,1604001803
89,pangody,65.85,74.49,7.43,95,88,8.32,RU,1604001803
90,victoria,22.29,114.16,75.99,82,74,1.01,HK,1604001330
91,hilo,19.73,-155.09,78.8,65,75,3.36,US,1604001425
92,boa vista,2.82,-60.67,86.0,62,75,16.11,BR,1604001803
93,udachnyy,66.42,112.4,-10.71,89,85,1.72,RU,1604001803
94,severo-kurilsk,50.68,156.12,41.34,79,84,5.41,RU,1604001410
95,san patricio,28.02,-97.52,72.0,37,20,21.92,US,1604001803
96,homer,59.64,-151.55,33.01,68,40,8.05,US,1604001804
97,indian head,38.6,-77.16,69.8,88,90,12.75,US,1604001741
98,poum,-20.23,164.02,76.21,71,69,15.68,NC,1604001549
99,mwinilunga,-11.74,24.43,67.44,79,98,3.91,ZM,1604001804
100,chokurdakh,70.63,147.92,-4.83,92,99,4.83,RU,1604001417
101,hobart,-42.88,147.33,53.6,81,75,2.55,AU,1604001338
102,along,28.17,94.77,60.51,50,3,2.46,IN,1604001630
103,port alfred,-33.59,26.89,62.64,75,100,20.56,ZA,1604001579
104,le pradet,43.11,6.02,66.0,52,0,3.36,FR,1604001637
105,repelon,10.49,-75.13,83.08,82,100,9.06,CO,1604001804
106,hirara,24.8,125.28,76.86,81,93,19.46,JP,1604001804
107,ribeira grande,38.52,-28.7,68.0,94,75,14.99,PT,1604001805
108,butaritari,3.07,172.79,82.06,73,48,11.18,KI,1604001403
109,verkhoyansk,67.54,133.38,3.09,92,100,0.31,RU,1604001650
110,qaanaaq,77.48,-69.36,5.18,72,0,5.77,GL,1604001283
111,bojnurd,37.47,57.33,50.0,25,0,2.24,IR,1604001805
112,northam,51.03,-4.22,59.0,90,100,7.0,GB,1604001477
113,kununurra,-15.77,128.73,78.8,94,50,6.44,AU,1604001454
114,polunochnoye,60.87,60.42,34.79,90,65,6.02,RU,1604001805
115,nome,64.5,-165.41,21.99,85,40,6.53,US,1604001805
116,iqaluit,63.75,-68.51,7.34,90,70,9.01,CA,1604001363
117,avarua,-21.21,-159.78,75.2,78,100,8.05,CK,1604001466
118,basco,20.45,121.97,79.79,80,24,25.77,PH,1604001642
119,norman wells,65.28,-126.83,14.49,91,68,3.49,CA,1604001605
120,pitimbu,-7.47,-34.81,82.4,65,20,13.87,BR,1604001264
121,otradnoye,59.78,30.82,50.0,93,90,2.24,RU,1604001806
122,codrington,-38.27,141.97,50.85,93,97,2.06,AU,1604001566
123,esperance,-33.87,121.9,48.2,87,0,8.05,AU,1604001508
124,fortuna,40.6,-124.16,70.0,37,1,5.82,US,1604001131
125,kalabo,-14.97,22.68,75.15,53,6,5.06,ZM,1604001806
126,aklavik,68.22,-135.01,14.72,93,100,4.94,CA,1604001309
127,sunrise manor,36.21,-115.07,75.99,14,1,5.82,US,1604001604
128,grindavik,63.84,-22.43,42.8,93,75,14.99,IS,1604001806
129,jieshi,22.81,115.83,71.53,83,98,10.36,CN,1604001806
130,chuy,-33.7,-53.46,60.28,59,24,16.49,UY,1604001448
131,yandyki,45.77,47.13,56.86,63,78,14.45,RU,1604001807
132,zhurivka,50.5,31.78,48.2,100,75,4.47,UA,1604001807
133,casablanca,33.59,-7.62,66.2,72,0,9.17,MA,1604001632
134,salalah,17.02,54.09,78.8,69,0,3.36,OM,1604001546
135,svetlogorsk,52.63,29.73,48.15,93,100,6.24,BY,1604001809
136,atar,20.52,-13.05,86.79,15,4,9.8,MR,1604001535
137,hasaki,35.73,140.83,54.0,71,75,5.82,JP,1604001469
138,aleppo,36.25,37.5,68.68,52,0,7.72,SY,1604001809
139,kahului,20.89,-156.47,80.6,74,90,4.7,US,1604001341
140,cabo san lucas,22.89,-109.91,82.99,54,5,11.41,MX,1604001760
141,castro,-24.79,-50.01,62.24,90,100,8.1,BR,1604001420
142,nikolskoye,59.7,30.79,50.0,93,90,2.24,RU,1604001401
143,khudumelapye,-23.88,24.75,80.76,20,0,10.45,BW,1604001809
144,provideniya,64.38,-173.3,19.4,62,0,5.99,RU,1604001290
145,jackson,42.42,-122.83,57.2,41,1,0.87,US,1604001708
146,lensk,60.73,114.93,16.5,95,100,3.89,RU,1604001810
147,christchurch,-43.53,172.63,55.99,91,97,5.01,NZ,1604001749
148,cidreira,-30.18,-50.21,63.7,69,100,13.82,BR,1604001447
149,kaitangata,-46.28,169.85,55.0,89,100,4.0,NZ,1604001456
150,oistins,13.07,-59.53,77.0,94,40,26.4,BB,1604001810
151,ambon,-3.7,128.18,81.0,95,97,4.5,ID,1604001520
152,lerik,38.77,48.41,57.2,100,75,2.24,AZ,1604001810
153,arlit,18.74,7.39,84.24,14,0,13.91,NE,1604001810
154,nantucket,41.28,-70.1,48.99,93,90,9.17,US,1604001722
155,vytegra,61.01,36.45,48.51,93,100,7.7,RU,1604001811
156,abonnema,4.71,6.79,80.6,83,40,4.7,NG,1604001811
157,bengkulu,-3.8,102.27,75.0,88,88,4.27,ID,1604001311
158,port-gentil,-0.72,8.78,80.6,88,40,2.24,GA,1604001811
159,longyearbyen,78.22,15.64,21.2,57,40,20.8,SJ,1604001490
160,moranbah,-22.0,148.05,67.26,46,0,8.39,AU,1604001472
161,carnarvon,-24.87,113.63,69.8,100,90,8.05,AU,1604001335
162,bud,39.45,-86.18,46.99,87,90,8.05,US,1604001811
163,torbay,47.67,-52.73,41.0,83,96,13.33,CA,1604001394
164,san,13.3,-4.9,83.57,15,85,6.06,ML,1604001812
165,tiksi,71.69,128.87,5.7,93,100,7.96,RU,1604001419
166,sambava,-14.27,50.17,73.17,84,44,12.68,MG,1604001812
167,airai,-8.93,125.41,60.49,98,45,1.61,TL,1604001292
168,venado tuerto,-33.75,-61.97,68.0,46,0,17.0,AR,1604001603
169,kargasok,59.06,80.86,21.85,98,96,7.02,RU,1604001812
170,odweyne,9.41,45.06,73.18,53,67,3.44,SO,1604001812
171,khandbari,27.37,87.2,64.27,34,0,4.83,NP,1604001812
172,bethel,41.37,-73.41,45.0,89,100,3.0,US,1604001254
173,nuuk,64.18,-51.72,23.0,79,40,5.82,GL,1604001813
174,mandera,3.94,41.87,82.35,62,25,11.1,KE,1604001530
175,tahe,52.33,124.73,25.21,92,100,3.47,CN,1604001813
176,fort nelson,58.81,-122.7,32.58,89,25,3.51,CA,1604001813
177,mildura,-34.2,142.15,55.4,100,90,5.82,AU,1604001516
178,parakou,9.34,2.63,78.42,46,91,4.56,BJ,1604001813
179,narsaq,60.92,-46.05,32.0,94,75,1.57,GL,1604001345
180,saint-philippe,-21.36,55.77,69.8,68,40,17.22,RE,1604001471
181,nalut,30.33,10.85,60.01,48,0,14.45,LY,1604001813
182,kodiak,57.79,-152.41,33.8,69,1,3.27,US,1604001409
183,storslett,69.77,21.02,33.8,86,75,16.11,NO,1604001814
184,namibe,-15.2,12.15,70.66,72,3,10.71,AO,1604001497
185,berlevag,70.86,29.09,37.4,64,75,14.99,NO,1604001758
186,deputatskiy,69.3,139.9,1.67,94,100,0.92,RU,1604001485
187,summerland,49.6,-119.67,46.99,73,83,2.1,CA,1604001814
188,gorontalo,0.54,123.06,74.66,85,100,2.53,ID,1604001814
189,pangnirtung,66.15,-65.71,7.66,85,66,3.38,CA,1604001551
190,ponta do sol,32.67,-17.1,69.8,73,20,11.41,PT,1604001815
191,hobyo,5.35,48.53,79.93,75,100,13.65,SO,1604001451
192,belaya gora,68.53,146.42,5.85,95,100,5.41,RU,1604001815
193,okha,53.57,142.95,35.78,89,95,8.63,RU,1604001815
194,djambala,-2.54,14.75,68.36,97,62,2.37,CG,1604001491
195,saint-joseph,-21.37,55.62,69.8,68,40,17.22,RE,1604001815
196,kruisfontein,-34.0,24.73,57.0,86,100,4.0,ZA,1604001413
197,hithadhoo,-0.6,73.08,83.03,75,11,11.3,MV,1604001487
198,bristol,41.83,-71.17,46.0,94,100,7.47,US,1604001815
199,vila velha,-20.33,-40.29,84.0,78,20,20.8,BR,1604001623
200,leningradskiy,69.38,178.42,15.94,88,100,11.54,RU,1604001336
201,llanelli,51.68,-4.16,57.2,93,100,33.33,GB,1604001560
202,sobolevo,54.43,31.9,45.79,86,100,7.54,RU,1604001816
203,abalak,58.13,68.59,35.42,92,94,11.61,RU,1604001816
204,lewisporte,49.25,-55.05,36.0,89,87,6.13,CA,1604001816
205,arraial do cabo,-22.97,-42.03,78.8,94,90,6.93,BR,1604001816
206,baherden,38.44,57.43,48.85,38,0,10.98,TM,1604001816
207,nizhniy kuranakh,58.84,125.49,8.28,93,100,2.37,RU,1604001816
208,nassau,40.75,-73.58,52.0,87,90,11.41,US,1604001817
209,santa isabel,-23.32,-46.22,84.2,61,76,9.17,BR,1604001817
210,aswan,24.09,32.91,81.46,23,0,11.45,EG,1604001555
211,mayna,54.11,47.62,32.5,93,36,7.52,RU,1604001817
212,grand gaube,-20.01,57.66,68.0,71,2,5.01,MU,1604001817
213,high rock,26.62,-78.28,86.0,79,75,9.17,BS,1604001817
214,wamba,8.93,8.6,76.57,58,6,2.53,NG,1604001817
215,saint-francois,46.42,3.91,53.01,100,90,4.09,FR,1604001554
216,xichang,27.9,102.26,60.22,76,73,1.28,CN,1604001818
217,banes,20.96,-75.72,85.14,68,1,14.12,CU,1604001818
218,nioro,13.35,-15.75,83.19,33,50,3.8,GM,1604001439
219,puerto escondido,15.85,-97.07,86.0,62,75,8.05,MX,1604001749
220,guozhen,34.37,107.36,49.89,80,15,2.89,CN,1604001818
221,cabinda,-5.55,12.2,77.59,86,100,8.01,AO,1604001818
222,coahuayana,18.73,-103.68,82.4,74,40,5.77,MX,1604001530
223,kloulklubed,7.04,134.26,75.2,94,75,9.06,PW,1604001818
224,ipixuna,-1.76,-48.8,86.0,70,75,12.75,BR,1604001819
225,mlowo,-9.0,32.98,64.53,69,92,5.59,TZ,1604001819
226,limbang,4.75,115.0,80.6,94,75,1.12,MY,1604001819
227,port elizabeth,-33.92,25.57,59.0,77,100,20.8,ZA,1604001781
228,broken hill,-31.95,141.43,50.0,81,0,9.17,AU,1604001819
229,bongaree,-27.08,153.16,64.0,3,0,4.92,AU,1604001819
230,albacete,38.83,-2.0,51.8,87,0,4.7,ES,1604001819
231,ketchikan,55.34,-131.65,42.8,93,90,4.05,US,1604001516
232,shenjiamen,29.96,122.3,62.73,70,0,15.03,CN,1604001820
233,dukat,62.55,155.55,7.61,91,55,3.4,RU,1604001820
234,ilulissat,69.22,-51.1,17.6,72,20,8.05,GL,1604001421
235,barrow,71.29,-156.79,14.0,85,75,11.41,US,1604001393
236,umm kaddadah,13.6,26.69,87.33,20,0,13.73,SD,1604001820
237,pinhao,-25.7,-51.66,60.08,96,100,1.28,BR,1604001820
238,talara,-4.58,-81.27,75.2,64,0,19.46,PE,1604001566
239,ancud,-41.87,-73.82,55.4,54,0,12.75,CL,1604001459
240,kpandae,8.47,-0.01,82.15,50,18,2.46,GH,1604001821
241,murnau,48.23,12.29,48.0,98,100,4.0,DE,1604001821
242,klaksvik,62.23,-6.59,46.4,100,100,16.11,FO,1604001452
243,kwinana,-32.25,115.77,69.01,48,100,16.11,AU,1604001821
244,mahebourg,-20.41,57.7,68.0,72,3,5.01,MU,1604001463
245,isiro,2.77,27.62,66.16,99,100,2.1,CD,1604001821
246,turukhansk,65.82,87.98,9.55,94,83,9.37,RU,1604001405
247,pudozh,61.81,36.53,47.73,94,100,7.87,RU,1604001821
248,telimele,10.92,-13.33,74.07,56,5,2.15,GN,1604001822
249,columbus,39.96,-83.0,48.99,93,90,9.17,US,1604001546
250,bilma,18.69,12.92,76.53,16,0,6.49,NE,1604001428
251,margate,51.38,1.39,57.99,84,100,4.0,GB,1604001506
252,saldanha,-33.01,17.94,51.8,66,0,4.7,ZA,1604001460
253,el alto,-4.27,-81.21,75.2,64,0,19.46,PE,1604001822
254,shubarshi,48.59,57.19,41.81,63,100,9.78,KZ,1604001436
255,budureasa,46.67,22.5,52.0,93,100,8.05,RO,1604001822
256,san vicente,-26.62,-54.13,74.3,60,100,7.0,AR,1604001823
257,port hardy,50.7,-127.42,54.41,87,100,7.18,CA,1604001660
258,alekseyevsk,57.84,108.35,26.78,97,87,4.97,RU,1604001823
259,lorengau,-2.02,147.27,81.39,79,96,8.37,PG,1604001408
260,boo,59.33,18.28,46.0,100,4,2.24,SE,1604001823
261,panama city,8.99,-79.52,86.0,79,40,10.29,PA,1604001823
262,roebourne,-20.78,117.13,71.29,80,86,9.98,AU,1604001823
263,veraval,20.9,70.37,79.68,68,75,6.96,IN,1604001824
264,amapa,1.0,-52.0,95.45,35,86,3.51,BR,1604001824
265,naze,28.37,129.48,75.2,64,90,11.41,JP,1604001458
266,myitkyina,25.38,97.4,74.07,73,100,1.66,MM,1604001824
267,danbury,41.39,-73.45,46.4,93,90,8.05,US,1604001824
268,jibuti,11.5,42.5,80.6,69,1,11.81,DJ,1604001824
269,tautira,-17.73,-149.15,82.4,78,20,12.75,PF,1604001764
270,rawah,34.48,41.91,71.04,21,69,6.4,IQ,1604001824
271,taltal,-25.4,-70.48,63.82,55,22,5.84,CL,1604001642
272,tuatapere,-46.13,167.68,55.0,90,100,1.99,NZ,1604001493
273,tasiilaq,65.61,-37.64,32.0,96,75,8.05,GL,1604001283
274,guanica,17.97,-66.91,84.99,68,95,1.99,PR,1604001825
275,burns lake,54.23,-125.75,35.15,87,100,3.76,CA,1604001528
276,losal,27.4,74.92,66.92,25,0,5.19,IN,1604001825
277,sosva,59.18,61.86,32.58,96,0,6.04,RU,1604001825
278,borogontsy,62.67,131.17,-9.35,91,65,2.51,RU,1604001825
279,presidencia roque saenz pena,-26.79,-60.44,79.0,21,5,7.0,AR,1604001578
280,nicoya,10.15,-85.45,89.6,70,75,8.05,CR,1604001825
281,sarangani,5.4,125.46,82.9,77,100,13.89,PH,1604001825
282,prince rupert,54.32,-130.32,46.4,70,100,3.33,CA,1604001609
283,fort-shevchenko,44.51,50.26,54.36,44,0,29.39,KZ,1604001826
284,cap malheureux,-19.98,57.61,68.0,71,2,5.01,MU,1604001826
285,malanje,-9.54,16.34,67.51,94,100,3.47,AO,1604001826
286,charters towers,-20.1,146.27,67.46,71,0,6.04,AU,1604001826
287,geraldton,-28.77,114.6,68.0,77,68,3.51,AU,1604001433
288,marsa matruh,31.35,27.25,71.6,56,0,5.82,EG,1604001826
289,demmin,53.91,13.03,50.0,81,75,8.05,DE,1604001826
290,isangel,-19.55,169.27,76.66,76,5,15.75,VU,1604001400
291,honavar,14.28,74.45,75.9,73,100,5.28,IN,1604001827
292,inta,66.03,60.17,35.62,94,100,18.12,RU,1604001827
293,lavrentiya,65.58,-171.0,22.66,90,0,7.92,RU,1604001431
294,sabha,27.04,14.43,67.46,39,0,12.59,LY,1604001827
295,sorland,67.67,12.69,41.0,60,75,16.11,NO,1604001519
296,dalbandin,28.89,64.41,54.77,36,0,6.58,PK,1604001827
297,gijon,43.54,-5.66,59.0,87,0,3.33,ES,1604001604
298,shache,38.42,77.24,37.94,54,97,2.89,CN,1604001518
299,caravelas,-17.71,-39.25,78.46,80,100,12.84,BR,1604001471
300,hinton,53.4,-117.59,35.83,80,100,1.16,CA,1604001656
301,akureyri,65.68,-18.09,42.8,75,90,5.82,IS,1604001828
302,kharan,28.58,65.42,58.06,32,0,7.63,PK,1604001670
303,roma,43.21,-75.46,45.0,93,90,3.36,US,1604001574
304,guerrero negro,27.98,-114.06,79.7,17,3,2.66,MX,1604001828
305,bida,9.08,6.02,81.84,45,50,2.39,NG,1604001828
306,lakshmipur,22.95,90.83,78.44,82,51,6.67,BD,1604001828
307,omboue,-1.57,9.26,76.8,89,100,3.85,GA,1604001828
308,nikel,69.41,30.22,30.2,80,75,21.92,RU,1604001828
309,komotini,41.12,25.4,59.0,78,55,1.99,GR,1604001829
310,avera,33.19,-82.53,86.0,70,90,8.05,US,1604001829
311,colquechaca,-18.67,-66.02,45.64,61,72,9.06,BO,1604001829
312,nadvoitsy,63.87,34.32,46.13,85,100,9.48,RU,1604001829
313,natal,-5.79,-35.21,82.4,69,40,16.11,BR,1604001660
314,debre tabor,11.85,38.02,51.64,67,0,2.28,ET,1604001829
315,buraydah,26.33,43.98,71.6,24,0,6.22,SA,1604001385
316,birpur,26.52,87.02,72.46,63,0,2.21,IN,1604001829
317,skjervoy,70.03,20.97,33.8,86,75,16.11,NO,1604001527
318,milkovo,54.72,158.62,29.57,97,69,0.98,RU,1604001830
319,dingle,11.0,122.67,76.03,89,92,5.82,PH,1604001551
320,san jose,37.34,-121.89,75.0,28,75,3.36,US,1604001698
321,kaeo,-35.1,173.78,63.0,94,100,5.99,NZ,1604001830
322,dunedin,-45.87,170.5,54.0,89,100,1.01,NZ,1604001360
323,santa cruz,-17.8,-63.17,87.8,38,75,26.4,BO,1604001830
324,cayenne,4.93,-52.33,87.8,70,75,11.41,GF,1604001461
325,gouyave,12.16,-61.73,84.2,79,20,11.41,GD,1604001626
326,doka,13.52,35.77,83.43,29,0,4.0,SD,1604001830
327,bambous virieux,-20.34,57.76,68.0,71,6,5.01,MU,1604001830
328,north ogden,41.31,-111.96,60.01,22,1,3.36,US,1604001831
329,la ronge,55.1,-105.28,33.48,90,98,9.82,CA,1604001786
330,iskateley,67.68,53.15,38.57,92,100,19.57,RU,1604001831
331,tilichiki,60.47,166.1,23.23,94,0,3.71,RU,1604001439
332,lagoa,39.05,-27.98,68.7,87,100,24.94,PT,1604001418
333,biu,10.61,12.19,77.76,29,13,6.98,NG,1604001831
334,fare,-16.7,-151.02,80.55,77,35,9.51,PF,1604001549
335,kysyl-syr,63.9,122.76,-7.01,90,2,2.71,RU,1604001832
336,brainerd,46.36,-94.2,33.8,47,1,1.86,US,1604001785
337,vaitape,-16.52,-151.75,81.18,73,0,7.85,PF,1604001832
338,san francisco,37.77,-122.42,73.0,59,1,3.36,US,1604001699
339,kutum,14.2,24.67,77.2,22,46,13.31,SD,1604001832
340,ormara,25.21,64.64,76.17,56,0,6.51,PK,1604001832
341,gigmoto,13.78,124.39,80.49,85,98,10.56,PH,1604001467
342,shingu,33.73,135.98,50.86,71,27,5.77,JP,1604001622
343,vanimo,-2.67,141.3,77.49,84,100,3.74,PG,1604001481
344,vila do maio,15.13,-23.22,82.4,69,0,18.34,CV,1604001833
345,broome,42.25,-75.83,45.0,93,90,5.82,US,1604001428
346,ostrovnoy,68.05,39.51,43.25,84,100,28.34,RU,1604001556
347,ryotsu,38.08,138.43,52.11,63,55,14.34,JP,1604001833
348,buala,-8.14,159.59,79.29,83,100,6.96,SB,1604001553
349,harper,4.38,-7.72,77.52,89,99,6.26,LR,1604001833
350,acapulco,16.86,-99.89,86.0,70,40,3.36,MX,1604001546
351,hals,57.0,10.31,42.01,95,0,8.34,DK,1604001833
352,piney green,34.72,-77.32,82.4,61,75,23.04,US,1604001833
353,meulaboh,4.14,96.13,76.33,84,95,3.04,ID,1604001333
354,walla walla,46.06,-118.34,73.0,32,1,5.82,US,1604001834
355,otavi,-19.65,17.33,73.27,51,34,13.87,NA,1604001834
356,penzance,50.12,-5.54,55.4,100,40,23.04,GB,1604001834
357,sola,-13.88,167.55,80.76,78,100,19.19,VU,1604001834
358,mamallapuram,12.63,80.17,77.0,94,75,2.24,IN,1604001834
359,ucluelet,48.93,-125.55,55.0,94,100,4.36,CA,1604001834
360,ola,59.58,151.28,28.18,92,95,5.03,RU,1604001483
361,san martin,-33.08,-68.47,66.2,24,0,6.93,AR,1604001834
362,bac lieu,9.29,105.72,77.79,86,41,3.29,VN,1604001835
363,sindor,62.86,51.89,39.58,96,100,9.01,RU,1604001836
364,ballitoville,-29.54,31.21,77.0,69,75,17.22,ZA,1604001836
365,chontalpa,17.7,-93.52,82.87,81,100,10.27,MX,1604001836
366,rio branco,-9.97,-67.81,84.2,79,75,8.05,BR,1604001836
367,dakar,14.69,-17.44,84.2,74,0,2.24,SN,1604001785
368,celestun,20.87,-90.4,82.63,73,33,6.89,MX,1604001836
369,jumla,29.27,82.18,43.99,54,0,4.7,NP,1604001559
370,murray bridge,-35.12,139.27,53.01,100,97,4.0,AU,1604001837
371,padang,-0.95,100.35,77.92,71,80,3.33,ID,1604001448
372,barguzin,53.62,109.62,31.66,94,97,3.65,RU,1604001837
373,osoyoos,49.03,-119.45,55.99,61,62,1.54,CA,1604001837
374,izmalkovo,52.69,37.96,43.16,64,100,7.4,RU,1604001837
375,irati,-25.47,-50.65,61.84,94,100,5.12,BR,1604001662
376,port hedland,-20.32,118.57,73.4,88,24,8.05,AU,1604001702
377,terrak,65.09,12.37,42.8,93,75,10.29,NO,1604001837
378,nemuro,43.32,145.57,44.71,85,11,13.6,JP,1604001578
379,visnes,59.36,5.22,51.01,93,75,10.29,NO,1604001837
380,svay rieng,11.09,105.8,76.19,89,81,4.74,KH,1604001838
381,nipawin,53.37,-104.0,33.76,88,100,7.07,CA,1604001838
382,mincivan,39.03,46.72,65.14,40,0,2.95,AZ,1604001838
383,catia la mar,10.6,-67.03,70.0,69,58,5.82,VE,1604001838
384,saint-augustin,51.23,-58.65,35.19,83,78,10.22,CA,1604001763
385,belyy yar,53.6,91.39,26.6,68,0,8.95,RU,1604001838
386,baykit,61.67,96.37,13.51,93,100,1.66,RU,1604001838
387,bukachacha,52.98,116.92,25.07,93,100,0.54,RU,1604001518
388,saint anthony,45.02,-93.22,36.0,55,90,3.36,US,1604001839
389,shakawe,-18.37,21.85,80.96,32,52,3.83,BW,1604001839
390,namikupa,-10.83,39.6,72.14,86,96,3.02,TZ,1604001839
391,san quintin,30.48,-115.95,73.76,37,0,8.9,MX,1604001839
392,kollam,8.88,76.6,82.4,94,20,4.23,IN,1604001839
393,santiago del estero,-27.8,-64.26,80.42,16,0,9.78,AR,1604001792
394,tura,25.52,90.22,71.37,86,0,4.32,IN,1604001839
395,howard springs,-12.5,131.05,80.6,83,40,1.12,AU,1604001785
396,cabedelo,-6.98,-34.83,82.4,65,20,13.87,BR,1604001490
397,the valley,18.22,-63.06,84.2,78,20,17.22,AI,1604001765
398,puerto leguizamo,-0.19,-74.78,95.11,43,8,5.91,CO,1604001840
399,bonavista,48.65,-53.11,37.99,88,95,1.99,CA,1604001840
400,dali,25.7,100.18,55.87,83,62,1.32,CN,1604001840
401,baguanos,20.75,-76.03,84.79,69,3,13.8,CU,1604001840
402,maues,-3.38,-57.72,98.35,36,99,0.81,BR,1604001840
403,mahajanga,-15.72,46.32,84.2,48,40,12.75,MG,1604001840
404,boyolangu,-8.12,111.89,76.23,89,67,1.41,ID,1604001841
405,tessalit,20.2,1.01,81.36,15,1,8.21,ML,1604001465
406,eyl,7.98,49.82,80.2,74,32,4.23,SO,1604001841
407,golden,39.76,-105.22,64.99,41,20,10.29,US,1604001568
408,kinsale,51.71,-8.53,55.99,100,90,24.16,IE,1604001841
409,lucapa,-8.42,20.74,68.88,94,100,3.02,AO,1604001841
410,odesa,46.48,30.73,51.8,93,40,5.41,UA,1604001841
411,bubaque,11.28,-15.83,84.06,75,0,13.02,GW,1604001841
412,constitucion,-35.33,-72.42,62.94,51,0,14.54,CL,1604001543
413,codajas,-3.84,-62.06,89.06,64,100,1.74,BR,1604001577
414,kizukuri,40.81,140.39,46.99,64,77,11.01,JP,1604001842
415,sinop,41.77,34.87,58.87,70,96,0.94,TR,1604001842
416,tirumakudal narsipur,12.21,76.91,66.6,81,100,2.42,IN,1604001842
417,khandyga,62.67,135.6,-0.24,93,97,2.13,RU,1604001842
418,przhevalskoye,55.51,31.85,45.36,90,100,6.64,RU,1604001842
419,katsuura,35.13,140.3,60.8,51,75,18.34,JP,1604001531
420,slave lake,55.28,-114.77,35.42,85,96,4.79,CA,1604001843
421,bara,10.37,10.73,78.98,36,0,1.3,NG,1604001843
422,ahuimanu,21.44,-157.84,81.0,65,40,3.02,US,1604001843
423,rasra,25.85,83.85,69.22,43,0,4.38,IN,1604001843
424,clyde river,70.47,-68.59,21.11,95,100,13.15,CA,1604001567
425,coquimbo,-29.95,-71.34,62.6,63,20,14.99,CL,1604001451
426,tallahassee,30.44,-84.28,79.0,94,90,17.22,US,1604001787
427,verkhnevilyuysk,63.45,120.32,-5.4,91,71,3.85,RU,1604001843
428,valenca do piaui,-6.41,-41.75,96.35,25,90,4.76,BR,1604001844
429,bastia,42.67,9.33,60.01,100,20,4.7,FR,1604001844
430,pella,59.78,30.82,50.0,93,90,2.24,RU,1604001844
431,general pico,-35.66,-63.76,66.87,26,0,9.13,AR,1604001844
432,port blair,11.67,92.75,80.4,84,99,9.15,IN,1604001844
433,bathsheba,13.22,-59.52,77.0,94,40,26.4,BB,1604001395
434,antofagasta,-23.65,-70.4,62.6,63,20,13.87,CL,1604001540
435,waverly,42.74,-84.62,44.01,75,90,9.17,US,1604001844
436,beauchamps,50.01,1.52,57.0,82,100,16.67,FR,1604001785
437,xinyu,27.8,114.93,60.06,88,16,1.88,CN,1604001844
438,alofi,-19.06,-169.92,75.2,64,44,16.11,NU,1604001844
439,half moon bay,37.46,-122.43,72.0,55,5,3.36,US,1604001809
440,hillsborough,37.57,-122.38,72.0,59,1,3.36,US,1604001844
441,ust-kuyga,70.02,135.6,3.4,92,100,1.14,RU,1604001845
442,burnie,-41.07,145.92,50.74,82,46,4.23,AU,1604001845
443,tazovskiy,67.47,78.7,-2.61,93,14,6.71,RU,1604001845
444,portland,45.52,-122.68,60.01,81,90,1.39,US,1604001628
445,touros,-5.2,-35.46,82.4,69,40,16.11,BR,1604001362
446,guanhaes,-18.77,-42.93,76.51,85,100,3.74,BR,1604001695
447,alenquer,-1.94,-54.74,93.2,59,20,16.11,BR,1604001845
448,hofn,64.25,-15.21,45.93,82,100,12.88,IS,1604001845
449,koutsouras,35.03,25.95,66.99,71,7,7.0,GR,1604001845
450,kijabe,-0.93,36.58,55.99,89,80,3.0,KE,1604001845
451,ballina,-28.87,153.57,61.0,100,40,4.23,AU,1604001550
452,challapata,-18.9,-66.77,61.23,24,7,13.38,BO,1604001846
453,erenhot,43.65,111.98,40.75,54,0,8.88,CN,1604001846
454,durres,41.32,19.44,60.8,87,75,2.24,AL,1604001643
455,pavilosta,56.89,21.19,50.0,93,100,5.82,LV,1604001846
456,chumikan,54.72,135.31,30.16,93,53,12.68,RU,1604001846
457,tual,-5.67,132.75,82.81,69,91,6.51,ID,1604001846
458,mokhsogollokh,61.47,128.92,-6.39,92,39,2.24,RU,1604001846
459,jabinyanah,35.03,10.91,64.4,63,0,4.7,TN,1604001846
460,mizan teferi,6.98,35.58,62.13,83,13,2.66,ET,1604001846
461,copiapo,-27.37,-70.33,64.4,55,0,9.17,CL,1604001753
462,nisia floresta,-6.09,-35.21,82.4,69,40,16.11,BR,1604001847
463,bartica,6.4,-58.62,87.8,70,40,13.87,GY,1604001847
464,morant bay,17.88,-76.41,86.0,74,20,14.99,JM,1604001847
465,toledo,39.83,-4.0,57.99,65,0,2.84,ES,1604001847
466,saint-pierre,-21.34,55.48,69.8,68,40,17.22,RE,1604001459
467,minudasht,37.23,55.37,65.32,40,0,2.48,IR,1604001847
468,uddevalla,58.35,11.94,52.0,100,3,5.82,SE,1604001847
469,inhambane,-23.86,35.38,77.0,78,40,6.93,MZ,1604001422
470,tatarka,44.96,41.95,59.0,87,0,13.42,RU,1604001848
471,neiafu,-18.65,-173.98,73.4,69,40,4.7,TO,1604001848
472,manado,1.49,124.85,77.81,82,5,4.36,ID,1604001426
473,verkhnyaya inta,65.98,60.31,35.87,93,100,16.71,RU,1604001848
474,burkburnett,34.1,-98.57,59.0,54,20,17.22,US,1604001848
475,sertanopolis,-23.06,-51.04,75.2,69,0,9.17,BR,1604001725
476,inzhavino,52.32,42.49,43.03,63,81,9.17,RU,1604001848
477,black diamond,47.31,-122.0,60.01,82,64,2.86,US,1604001848
478,podporozhye,60.91,34.17,48.11,95,100,6.06,RU,1604001848
479,lima,-12.04,-77.03,68.0,72,40,9.17,PE,1604001724
480,rochester,43.15,-77.62,48.0,93,90,6.93,US,1604001208
481,tekirdag,40.98,27.51,55.4,93,40,5.82,TR,1604001849
482,lieksa,63.32,30.02,48.36,79,100,15.3,FI,1604001849
483,sayyan,15.17,44.32,51.66,44,0,4.29,YE,1604001849
484,ambositra,-20.52,47.25,58.37,89,88,7.81,MG,1604001849
485,urengoy,65.97,78.37,-1.26,91,0,6.38,RU,1604001849
486,ornskoldsvik,63.29,18.72,35.6,100,0,3.36,SE,1604001849
487,itupiranga,-5.13,-49.33,96.8,41,20,5.82,BR,1604001468
488,rundu,-17.93,19.77,75.96,42,37,2.71,NA,1604001850
489,porto novo,6.5,2.6,82.4,83,40,10.29,BJ,1604001850
490,lompoc,34.64,-120.46,75.99,23,1,8.59,US,1604001451
491,ambatolampy,-19.38,47.42,62.6,82,75,8.05,MG,1604001851
492,elizabeth city,36.29,-76.25,84.2,66,75,26.4,US,1604001851
493,plettenberg bay,-34.05,23.37,57.07,70,100,14.41,ZA,1604001851
494,samarinda,-0.5,117.15,75.22,90,100,1.16,ID,1604001851
495,les cayes,18.2,-73.75,84.16,75,9,7.67,HT,1604001851
496,zabol,32.25,67.25,38.95,58,0,3.27,AF,1604001851
497,shahreza,32.03,51.88,43.99,52,0,3.2,IR,1604001851
498,sarkand,45.41,79.92,31.84,85,2,2.53,KZ,1604001408
499,belmonte,-15.86,-38.88,78.8,78,75,16.11,BR,1604001424
500,siyabuswa,-25.11,29.04,75.09,20,0,9.15,ZA,1604001851
501,vondrozo,-22.82,47.28,60.62,100,97,7.0,MG,1604001852
502,kenai,60.55,-151.26,25.0,79,1,5.95,US,1604001414
503,nabisar,25.07,69.64,79.43,32,0,5.91,PK,1604001852
504,yinchuan,38.47,106.27,47.44,65,0,4.81,CN,1604001660
505,wolgast,54.05,13.77,46.0,90,0,14.38,DE,1604001852
506,goundam,16.41,-3.67,88.74,12,7,11.63,ML,1604001852
507,sembe,1.65,14.58,69.48,95,94,1.39,CG,1604001532
508,quime,-16.98,-67.22,61.81,50,61,8.63,BO,1604001852
509,soller,39.77,2.72,62.01,87,0,2.24,ES,1604001853
510,acajutla,13.59,-89.83,82.4,65,0,3.36,SV,1604001853
511,yichang,30.71,111.28,58.53,69,0,1.99,CN,1604001853
512,terra santa,-2.1,-56.49,100.15,31,45,5.86,BR,1604001853
513,boffa,10.17,-14.03,79.29,82,0,3.76,GN,1604001853
514,erdenet,49.03,104.08,32.32,83,100,2.35,MN,1604001790
515,sampit,-2.53,112.95,73.65,95,100,0.98,ID,1604001853
516,coihaique,-45.58,-72.07,59.0,41,0,5.82,CL,1604001336
517,egvekinot,66.32,-179.17,12.36,85,7,1.63,RU,1604001787
518,agadez,19.75,10.25,75.0,18,0,8.88,NE,1604001853
519,sur,22.57,59.53,72.16,55,0,1.12,OM,1604001454
520,kenora,49.82,-94.43,24.8,62,20,6.93,CA,1604001854
521,muchkapskiy,51.85,42.47,43.93,61,78,9.57,RU,1604001854
522,merauke,-8.47,140.33,78.6,80,11,4.41,ID,1604001305
523,lufilufi,-13.87,-171.6,82.4,83,75,21.63,WS,1604001854
524,baoning,25.34,110.03,62.6,93,40,3.13,CN,1604001854
525,karratha,-20.74,116.85,70.23,88,66,9.75,AU,1604001401
526,tefe,-3.35,-64.71,87.8,74,20,8.05,BR,1604001728
527,hervey bay,-25.3,152.85,66.99,90,0,3.0,AU,1604001854
528,krasnoselkup,65.7,82.47,-3.32,93,0,3.58,RU,1604001568
529,olga,43.74,135.29,37.71,77,48,11.12,RU,1604001855
530,malindi,-3.22,40.12,78.91,79,68,12.06,KE,1604001855
531,bewar,27.22,79.3,70.52,27,0,2.84,IN,1604001855
532,gobabis,-22.45,18.97,74.1,43,100,9.04,NA,1604001855
533,galle,6.04,80.22,78.67,83,96,5.73,LK,1604001585
534,acaponeta,22.5,-105.36,92.07,34,0,4.76,MX,1604001855
535,roald,62.58,6.13,46.4,87,75,9.17,NO,1604001855
536,lakselv,70.05,24.97,35.6,69,20,23.04,NO,1604001855
537,poso,-1.4,120.75,79.0,78,92,5.88,ID,1604001855
538,itarema,-2.92,-39.92,81.59,68,2,19.24,BR,1604001404
539,bella union,-30.28,-57.6,68.63,54,84,12.95,UY,1604001856
540,tekkali,18.62,84.23,73.72,65,58,5.3,IN,1604001856
541,pimentel,-6.84,-79.93,71.6,60,0,24.16,PE,1604001856
542,tigre,-34.43,-58.58,64.99,42,75,12.75,AR,1604001856
543,saint cloud,45.56,-94.16,36.0,47,1,5.82,US,1604001565
544,baoding,38.85,115.49,45.63,61,0,3.15,CN,1604001856
545,lamar,33.67,-95.58,53.01,81,90,16.11,US,1604001633
546,labuan,5.28,115.24,82.4,88,20,3.36,MY,1604001856
547,san cristobal,7.77,-72.22,75.85,82,91,2.42,VE,1604001780
548,mezen,65.85,44.24,43.02,90,59,11.05,RU,1604001856
549,santa marta,11.24,-74.2,87.01,75,100,1.01,CO,1604001701
550,hattiesburg,31.33,-89.29,64.4,45,1,12.75,US,1604001715
551,verkhoshizhemye,58.01,49.1,31.35,95,60,8.21,RU,1604001857
552,tucuma,-0.18,-50.05,86.63,64,94,8.59,BR,1604001575
553,komsomolskiy,40.43,71.72,41.0,44,0,4.7,UZ,1604001390
554,mangotsfield,51.49,-2.5,57.0,93,90,14.99,GB,1604001857
555,male,4.17,73.51,81.86,76,100,8.93,MV,1604001710
556,butia,-30.12,-51.96,64.31,70,100,4.61,BR,1604001857
557,praia da vitoria,38.73,-27.07,68.0,88,40,12.57,PT,1604001857
558,tongchuan,35.08,109.09,47.89,78,9,4.29,CN,1604001857
559,viru,-8.42,-78.75,66.2,72,40,19.46,PE,1604001857
560,mailsi,29.8,72.18,67.86,25,0,2.93,PK,1604001858
561,haines junction,60.75,-137.51,23.94,91,100,2.57,CA,1604001858
562,biak,-0.91,122.88,77.58,77,44,1.99,ID,1604001521
563,athens,37.98,23.72,64.99,77,20,3.0,GR,1604001731
564,nea alikarnassos,35.33,25.17,66.2,77,20,7.34,GR,1604001858
565,asfi,32.3,-9.24,69.84,63,20,10.76,MA,1604001858
566,kamaishi,39.27,141.88,46.08,70,37,5.03,JP,1604001435
567,soure,-0.72,-48.52,83.8,72,94,13.15,BR,1604001858
